{"totalResultsCount":6628,"geonames":[{"adminCode1":"ENG","lng":"-0.12574","geonameId":2643743,"toponymName":"London","countryId":"2635167","fcl":"P","population":7556900,"countryCode":"GB","name":"London","fclName":"city, village,...","countryName":"United Kingdom","fcodeName":"capital of a political entity","adminName1":"England","lat":"51.50853","fcode":"PPLC"},{"adminCode1":"05","lng":"27.91162","geonameId":1006984,"toponymName":"East London","countryId":"953987","fcl":"P","population":478676,"countryCode":"ZA","name":"East London","fclName":"city, village,...","countryName":"South Africa","fcodeName":"seat of a second-order administrative division","adminName1":"Eastern Cape","lat":"-33.01529","fcode":"PPLA2"},{"adminCode1":"ENG","lng":"-0.09184","geonameId":2643741,"toponymName":"City of London","countryId":"2635167","fcl":"P","population":7556900,"countryCode":"GB","name":"City of London","fclName":"city, village,...","countryName":"United Kingdom","fcodeName":"seat of a third-order administrative division","adminName1":"England","lat":"51.51279","fcode":"PPLA3"},{"adminCode1":"08","lng":"-81.23304","geonameId":6058560,"toponymName":"London","countryId":"6251999","fcl":"P","population":346765,"countryCode":"CA","name":"London","fclName":"city, village,...","countryName":"Canada","fcodeName":"populated place","adminName1":"Ontario","lat":"42.98339","fcode":"PPL"},{"adminCode1":"CT","lng":"-72.09952","geonameId":4839416,"toponymName":"New London","countryId":"6252001","fcl":"P","population":27620,"countryCode":"US","name":"New London","fclName":"city, village,...","countryName":"United States","fcodeName":"populated place","adminName1":"Connecticut","lat":"41.35565","fcode":"PPL"},{"adminCode1":"ENG","lng":"0.05528","geonameId":6296599,"toponymName":"London City Airport","countryId":"2635167","fcl":"S","population":0,"countryCode":"GB","name":"London City Airport","fclName":"spot, building, farm","countryName":"United Kingdom","fcodeName":"airport","adminName1":"England","lat":"51.50528","fcode":"AIRP"},{"adminCode1":"CT","lng":"-72.1065","geonameId":4839420,"toponymName":"New London County","countryId":"6252001","fcl":"A","population":274055,"countryCode":"US","name":"New London County","fclName":"country, state, region,...","countryName":"United States","fcodeName":"second-order administrative division","adminName1":"Connecticut","lat":"41.46678","fcode":"ADM2"},{"adminCode1":"ENG","lng":"-0.17818","geonameId":6296598,"toponymName":"London Gatwick Airport","countryId":"2635167","fcl":"S","population":0,"countryCode":"GB","name":"Gatwick Airport","fclName":"spot, building, farm","countryName":"United Kingdom","fcodeName":"airport","adminName1":"England","lat":"51.15609","fcode":"AIRP"},{"adminCode1":"ENG","lng":"-0.45649","geonameId":2647216,"toponymName":"London Heathrow Airport","countryId":"2635167","fcl":"S","population":0,"countryCode":"GB","name":"Heathrow","fclName":"spot, building, farm","countryName":"United Kingdom","fcodeName":"airport","adminName1":"England","lat":"51.47115","fcode":"AIRP"},{"adminCode1":"CT","lng":"-72.07591","geonameId":4839843,"toponymName":"Norwich","countryId":"6252001","fcl":"P","population":40493,"countryCode":"US","name":"Norwich","fclName":"city, village,...","countryName":"United States","fcodeName":"populated place","adminName1":"Connecticut","lat":"41.52426","fcode":"PPL"},{"adminCode1":"CT","lng":"-72.04452","geonameId":4835487,"toponymName":"Groton-New London Airport","countryId":"6252001","fcl":"S","population":0,"countryCode":"US","name":"Groton-New London Airport","fclName":"spot, building, farm","countryName":"United States","fcodeName":"airport","adminName1":"Connecticut","lat":"41.3301","fcode":"AIRP"},{"adminCode1":"ENG","lng":"0.0325","geonameId":6296597,"toponymName":"London Biggin Hill Airport","countryId":"2635167","fcl":"S","population":0,"countryCode":"GB","name":"London Biggin Hill Airport","fclName":"spot, building, farm","countryName":"United Kingdom","fcodeName":"airport","adminName1":"England","lat":"51.33083","fcode":"AIRP"},{"adminCode1":"02","lng":"-157.47502","geonameId":4030939,"toponymName":"London Village","countryId":"4030945","fcl":"P","population":1829,"countryCode":"KI","name":"London Village","fclName":"city, village,...","countryName":"Kiribati","fcodeName":"populated place","adminName1":"Line Islands","lat":"1.98487","fcode":"PPL"},{"adminCode1":"16","lng":"-78.21641","geonameId":3489741,"toponymName":"Little London","countryId":"3489940","fcl":"P","population":0,"countryCode":"JM","name":"Little London","fclName":"city, village,...","countryName":"Jamaica","fcodeName":"populated place","adminName1":"Westmoreland","lat":"18.2483","fcode":"PPL"},{"adminCode1":"CT","lng":"-72.01424","geonameId":4837648,"toponymName":"Ledyard Center","countryId":"6252001","fcl":"P","population":15212,"countryCode":"US","name":"Ledyard Center","fclName":"city, village,...","countryName":"United States","fcodeName":"populated place","adminName1":"Connecticut","lat":"41.43982","fcode":"PPL"},{"adminCode1":"CT","lng":"-72.15119","geonameId":4838887,"toponymName":"Montville Center","countryId":"6252001","fcl":"P","population":20180,"countryCode":"US","name":"Montville Center","fclName":"city, village,...","countryName":"United States","fcodeName":"populated place","adminName1":"Connecticut","lat":"41.47899","fcode":"PPL"},{"adminCode1":"CT","lng":"-72.24408","geonameId":4834876,"toponymName":"Gardner Lake Airport","countryId":"6252001","fcl":"S","population":0,"countryCode":"US","name":"Gardner Lake Airport","fclName":"spot, building, farm","countryName":"United States","fcodeName":"airport","adminName1":"Connecticut","lat":"41.50902","fcode":"AIRP"},{"adminCode1":"CT","lng":"-72.07841","geonameId":4835461,"toponymName":"Groton","countryId":"6252001","fcl":"P","population":10389,"countryCode":"US","name":"Groton","fclName":"city, village,...","countryName":"United States","fcodeName":"populated place","adminName1":"Connecticut","lat":"41.3501","fcode":"PPL"},{"lng":"112.53333","geonameId":1879967,"name":"London Reefs","fclName":"undersea","toponymName":"London Reefs","countryName":"","fcodeName":"reefs","adminName1":"","lat":"8.85","fcl":"U","fcode":"RFSU","population":0},{"adminCode1":"ENG","lng":"-0.0763","geonameId":6286786,"toponymName":"Tower of London","countryId":"2635167","fcl":"S","population":0,"countryCode":"GB","name":"The Tower of London","fclName":"spot, building, farm","countryName":"United Kingdom","fcodeName":"castle","adminName1":"England","lat":"51.50823","fcode":"CSTL"},{"adminCode1":"05","lng":"27.82648","geonameId":1020088,"toponymName":"East London Airport","countryId":"953987","fcl":"S","population":0,"countryCode":"ZA","name":"East London Airport","fclName":"spot, building, farm","countryName":"South Africa","fcodeName":"airport","adminName1":"Eastern Cape","lat":"-33.03572","fcode":"AIRP"},{"adminCode1":"ENG","lng":"0.69556","geonameId":6296601,"toponymName":"London Southend Airport","countryId":"2635167","fcl":"S","population":0,"countryCode":"GB","name":"London Southend Airport","fclName":"spot, building, farm","countryName":"United Kingdom","fcodeName":"airport","adminName1":"England","lat":"51.57139","fcode":"AIRP"},{"adminCode1":"08","lng":"-81.14892","geonameId":6296323,"toponymName":"London International Airport","countryId":"6251999","fcl":"S","population":0,"countryCode":"CA","name":"London International Airport","fclName":"spot, building, farm","countryName":"Canada","fcodeName":"airport","adminName1":"Ontario","lat":"43.02987","fcode":"AIRP"},{"adminCode1":"00","lng":"9.78934","geonameId":2308696,"toponymName":"London","countryId":"2309096","fcl":"P","population":0,"countryCode":"GQ","name":"London","fclName":"city, village,...","countryName":"Equatorial Guinea","fcodeName":"populated place","adminName1":"","lat":"2.26815","fcode":"PPL"},{"lng":"112.53333","geonameId":9863479,"name":"London Reefs","fclName":"stream, lake, ...","toponymName":"London Reefs","countryName":"","fcodeName":"reef(s)","adminName1":"","lat":"8.85","fcl":"H","fcode":"RF","population":0},{"adminCode1":"ENG","lng":"-0.1253","geonameId":6944357,"toponymName":"University of London","countryId":"2635167","fcl":"S","population":0,"countryCode":"GB","name":"University of London","fclName":"spot, building, farm","countryName":"United Kingdom","fcodeName":"university","adminName1":"England","lat":"51.521","fcode":"UNIV"},{"adminCode1":"11","lng":"-60.53327","geonameId":3574271,"toponymName":"London Bridge Rock","countryId":"3573591","fcl":"T","population":0,"countryCode":"TT","name":"London Bridge Rock","fclName":"mountain,hill,rock,... ","countryName":"Trinidad and Tobago","fcodeName":"rock","adminName1":"Tobago","lat":"11.35454","fcode":"RK"},{"adminCode1":"00","lng":"-61.59603","geonameId":3580144,"toponymName":"London Bridge","countryId":"3580239","fcl":"T","population":0,"countryCode":"GD","name":"London Bridge","fclName":"mountain,hill,rock,... ","countryName":"Grenada","fcodeName":"rock","adminName1":"","lat":"12.25681","fcode":"RK"},{"adminCode1":"KY","lng":"-84.08326","geonameId":4298960,"toponymName":"London","countryId":"6252001","fcl":"P","population":7993,"countryCode":"US","name":"London","fclName":"city, village,...","countryName":"United States","fcodeName":"seat of a second-order administrative division","adminName1":"Kentucky","lat":"37.12898","fcode":"PPLA2"},{"adminCode1":"ENG","lng":"-0.48793","geonameId":6691393,"toponymName":"London Heathrow Terminal 5","countryId":"2635167","fcl":"S","population":0,"countryCode":"GB","name":"Heathrow Terminal 5","fclName":"spot, building, farm","countryName":"United Kingdom","fcodeName":"airport","adminName1":"England","lat":"51.47156","fcode":"AIRP"},{"adminCode1":"ENG","lng":"-0.44696","geonameId":6691394,"toponymName":"London Heathrow Terminal 4","countryId":"2635167","fcl":"S","population":0,"countryCode":"GB","name":"Heathrow Terminal 4","fclName":"spot, building, farm","countryName":"United Kingdom","fcodeName":"airport","adminName1":"England","lat":"51.45968","fcode":"AIRP"},{"adminCode1":"ENG","lng":"-0.16667","geonameId":2648110,"toponymName":"Greater London","countryId":"2635167","fcl":"A","population":7504800,"countryCode":"GB","name":"Greater London","fclName":"country, state, region,...","countryName":"United Kingdom","fcodeName":"second-order administrative division","adminName1":"England","lat":"51.5","fcode":"ADM2"},{"adminCode1":"ENG","lng":"0.14866","geonameId":2655775,"toponymName":"Bexley","countryId":"2635167","fcl":"P","population":228000,"countryCode":"GB","name":"Bexley","fclName":"city, village,...","countryName":"United Kingdom","fcodeName":"populated locality","adminName1":"England","lat":"51.44162","fcode":"PPLL"},{"adminCode1":"ENG","lng":"-0.2","geonameId":2636503,"toponymName":"Sutton","countryId":"2635167","fcl":"P","population":187600,"countryCode":"GB","name":"Sutton","fclName":"city, village,...","countryName":"United Kingdom","fcodeName":"seat of a third-order administrative division","adminName1":"England","lat":"51.35","fcode":"PPLA3"},{"adminCode1":"CT","lng":"-72.08452","geonameId":5280920,"toponymName":"Baltic","countryId":"6252001","fcl":"P","population":1250,"countryCode":"US","name":"Baltic","fclName":"city, village,...","countryName":"United States","fcodeName":"populated place","adminName1":"Connecticut","lat":"41.61704","fcode":"PPL"},{"adminCode1":"CT","lng":"-72.33203","geonameId":5284283,"toponymName":"Colchester","countryId":"6252001","fcl":"P","population":4781,"countryCode":"US","name":"Colchester","fclName":"city, village,...","countryName":"United States","fcodeName":"populated place","adminName1":"Connecticut","lat":"41.57565","fcode":"PPL"},{"adminCode1":"CT","lng":"-72.06877","geonameId":7257357,"toponymName":"Conning Towers-Nautilus Park","countryId":"6252001","fcl":"P","population":8834,"countryCode":"US","name":"Conning Towers-Nautilus Park","fclName":"city, village,...","countryName":"United States","fcodeName":"populated place","adminName1":"Connecticut","lat":"41.38548","fcode":"PPL"},{"adminCode1":"CT","lng":"-72.12502","geonameId":7257396,"toponymName":"Oxoboxo River","countryId":"6252001","fcl":"P","population":3165,"countryCode":"US","name":"Oxoboxo River","fclName":"city, village,...","countryName":"United States","fcodeName":"populated place","adminName1":"Connecticut","lat":"41.44391","fcode":"PPL"},{"adminCode1":"CT","lng":"-71.98091","geonameId":4836993,"toponymName":"Jewett City","countryId":"6252001","fcl":"P","population":3487,"countryCode":"US","name":"Jewett City","fclName":"city, village,...","countryName":"United States","fcodeName":"populated place","adminName1":"Connecticut","lat":"41.60677","fcode":"PPL"},{"adminCode1":"CT","lng":"-72.01174","geonameId":4837798,"toponymName":"Lisbon","countryId":"6252001","fcl":"P","population":4234,"countryCode":"US","name":"Lisbon","fclName":"city, village,...","countryName":"United States","fcodeName":"populated place","adminName1":"Connecticut","lat":"41.60399","fcode":"PPL"},{"adminCode1":"CT","lng":"-72.0523","geonameId":4837916,"toponymName":"Long Hill","countryId":"6252001","fcl":"P","population":4205,"countryCode":"US","name":"Long Hill","fclName":"city, village,...","countryName":"United States","fcodeName":"populated place","adminName1":"Connecticut","lat":"41.35399","fcode":"PPL"},{"adminCode1":"CT","lng":"-72.0998","geonameId":4838838,"toponymName":"Mohegan","countryId":"6252001","fcl":"P","population":0,"countryCode":"US","name":"Mohegan people","fclName":"city, village,...","countryName":"United States","fcodeName":"populated place","adminName1":"Connecticut","lat":"41.47676","fcode":"PPL"},{"adminCode1":"CT","lng":"-72.19313","geonameId":4839521,"toponymName":"Niantic","countryId":"6252001","fcl":"P","population":3114,"countryCode":"US","name":"Niantic","fclName":"city, village,...","countryName":"United States","fcodeName":"populated place","adminName1":"Connecticut","lat":"41.32538","fcode":"PPL"},{"adminCode1":"CT","lng":"-71.99063","geonameId":4839568,"toponymName":"Noank","countryId":"6252001","fcl":"P","population":1796,"countryCode":"US","name":"Noank","fclName":"city, village,...","countryName":"United States","fcodeName":"populated place","adminName1":"Connecticut","lat":"41.32788","fcode":"PPL"},{"adminCode1":"CT","lng":"-71.96174","geonameId":4840015,"toponymName":"Old Mystic","countryId":"6252001","fcl":"P","population":3554,"countryCode":"US","name":"Old Mystic","fclName":"city, village,...","countryName":"United States","fcodeName":"populated place","adminName1":"Connecticut","lat":"41.39149","fcode":"PPL"},{"adminCode1":"CT","lng":"-71.83368","geonameId":4840426,"toponymName":"Pawcatuck","countryId":"6252001","fcl":"P","population":5624,"countryCode":"US","name":"Pawcatuck","fclName":"city, village,...","countryName":"United States","fcodeName":"populated place","adminName1":"Connecticut","lat":"41.37732","fcode":"PPL"},{"adminCode1":"CT","lng":"-72.0248","geonameId":4840983,"toponymName":"Poquonock Bridge","countryId":"6252001","fcl":"P","population":1727,"countryCode":"US","name":"Poquonock Bridge","fclName":"city, village,...","countryName":"United States","fcodeName":"populated place","adminName1":"Connecticut","lat":"41.3451","fcode":"PPL"},{"adminCode1":"CT","lng":"-71.97396","geonameId":4841125,"toponymName":"Preston City","countryId":"6252001","fcl":"P","population":5000,"countryCode":"US","name":"Preston City","fclName":"city, village,...","countryName":"United States","fcodeName":"populated place","adminName1":"Connecticut","lat":"41.52899","fcode":"PPL"},{"adminCode1":"CT","lng":"-72.1098","geonameId":4844602,"toponymName":"Uncasville","countryId":"6252001","fcl":"P","population":1500,"countryCode":"US","name":"Uncasville","fclName":"city, village,...","countryName":"United States","fcodeName":"populated place","adminName1":"Connecticut","lat":"41.43454","fcode":"PPL"},{"adminCode1":"CT","lng":"-72.08202","geonameId":4834837,"toponymName":"Gales Ferry","countryId":"6252001","fcl":"P","population":1162,"countryCode":"US","name":"Gales Ferry","fclName":"city, village,...","countryName":"United States","fcodeName":"populated place","adminName1":"Connecticut","lat":"41.42982","fcode":"PPL"},{"adminCode1":"06","lng":"146.52","geonameId":8211941,"toponymName":"London Lakes","countryId":"2077456","fcl":"H","population":0,"countryCode":"AU","name":"London Lakes","fclName":"stream, lake, ...","countryName":"Australia","fcodeName":"lake","adminName1":"Tasmania","lat":"-42.14","fcode":"LK"},{"adminCode1":"ENG","lng":"-0.2","geonameId":2656295,"toponymName":"Barnet","countryId":"2635167","fcl":"P","population":30000,"countryCode":"GB","name":"Barnet","fclName":"city, village,...","countryName":"United Kingdom","fcodeName":"populated place","adminName1":"England","lat":"51.65","fcode":"PPL"},{"adminCode1":"OH","lng":"-82.39989","geonameId":5164352,"toponymName":"New London","countryId":"6252001","fcl":"P","population":2461,"countryCode":"US","name":"New London","fclName":"city, village,...","countryName":"United States","fcodeName":"populated place","adminName1":"Ohio","lat":"41.08505","fcode":"PPL"},{"adminCode1":"ENG","lng":"-0.45061","geonameId":6691396,"toponymName":"London Heathrow Terminal 1","countryId":"2635167","fcl":"S","population":0,"countryCode":"GB","name":"Heathrow Terminal 1","fclName":"spot, building, farm","countryName":"United Kingdom","fcodeName":"airport","adminName1":"England","lat":"51.47294","fcode":"AIRP"},{"adminCode1":"ENG","lng":"-0.45181","geonameId":6691397,"toponymName":"London Heathrow Terminal 2","countryId":"2635167","fcl":"S","population":0,"countryCode":"GB","name":"Heathrow Terminal 2","fclName":"spot, building, farm","countryName":"United Kingdom","fcodeName":"airport","adminName1":"England","lat":"51.46949","fcode":"AIRP"},{"adminCode1":"00","lng":"6.01667","geonameId":2661811,"toponymName":"London","countryId":"3017382","fcl":"H","population":0,"countryCode":"FR","name":"London","fclName":"stream, lake, ...","countryName":"France","fcodeName":"stream","adminName1":"","lat":"46.16667","fcode":"STM"},{"adminCode1":"ENG","lng":"-0.20784","geonameId":2634812,"toponymName":"Wandsworth","countryId":"2635167","fcl":"P","population":0,"countryCode":"GB","name":"Wandsworth","fclName":"city, village,...","countryName":"United Kingdom","fcodeName":"seat of a third-order administrative division","adminName1":"England","lat":"51.4577","fcode":"PPLA3"},{"adminCode1":"ENG","lng":"-1.32016","geonameId":6453432,"toponymName":"London Oxford Airport","countryId":"2635167","fcl":"S","population":0,"countryCode":"GB","name":"London Oxford Airport","fclName":"spot, building, farm","countryName":"United Kingdom","fcodeName":"airport","adminName1":"England","lat":"51.83652","fcode":"AIRP"},{"adminCode1":"KY","lng":"-84.07511","geonameId":6298569,"toponymName":"London-Corbin Airport","countryId":"6252001","fcl":"S","population":0,"countryCode":"US","name":"London-Corbin Airport","fclName":"spot, building, farm","countryName":"United States","fcodeName":"airport","adminName1":"Kentucky","lat":"37.08855","fcode":"AIRP"},{"adminCode1":"CT","lng":"-72.1098","geonameId":5284442,"toponymName":"Connecticut College Arboretum","countryId":"6252001","fcl":"L","population":0,"countryCode":"US","name":"Connecticut College Arboretum","fclName":"parks,area, ...","countryName":"United States","fcodeName":"park","adminName1":"Connecticut","lat":"41.37871","fcode":"PRK"},{"adminCode1":"CT","lng":"-72.13597","geonameId":8480031,"toponymName":"Waterford","countryId":"6252001","fcl":"P","population":0,"countryCode":"US","name":"Waterford","fclName":"city, village,...","countryName":"United States","fcodeName":"populated place","adminName1":"Connecticut","lat":"41.3417","fcode":"PPL"},{"adminCode1":"ENG","lng":"-0.10304","geonameId":2646003,"toponymName":"Islington","countryId":"2635167","fcl":"P","population":319143,"countryCode":"GB","name":"Islington","fclName":"city, village,...","countryName":"United Kingdom","fcodeName":"seat of a third-order administrative division","adminName1":"England","lat":"51.53622","fcode":"PPLA3"},{"adminCode1":"ENG","lng":"-0.02526","geonameId":2656065,"toponymName":"Beckenham","countryId":"2635167","fcl":"P","population":82000,"countryCode":"GB","name":"Beckenham","fclName":"city, village,...","countryName":"United Kingdom","fcodeName":"populated place","adminName1":"England","lat":"51.40878","fcode":"PPL"},{"adminCode1":"CT","lng":"-71.94452","geonameId":4837559,"toponymName":"Lantern Hill","countryId":"6252001","fcl":"T","population":0,"countryCode":"US","name":"Lantern Hill","fclName":"mountain,hill,rock,... ","countryName":"United States","fcodeName":"mountain","adminName1":"Connecticut","lat":"41.4601","fcode":"MT"},{"adminCode1":"CT","lng":"-72.21258","geonameId":4837629,"toponymName":"Lebanon","countryId":"6252001","fcl":"P","population":0,"countryCode":"US","name":"Lebanon","fclName":"city, village,...","countryName":"United States","fcodeName":"populated place","adminName1":"Connecticut","lat":"41.63621","fcode":"PPL"},{"adminCode1":"CT","lng":"-71.92702","geonameId":4837991,"toponymName":"Lords Point","countryId":"6252001","fcl":"P","population":0,"countryCode":"US","name":"Lords Point","fclName":"city, village,...","countryName":"United States","fcodeName":"populated place","adminName1":"Connecticut","lat":"41.33593","fcode":"PPL"},{"adminCode1":"CT","lng":"-71.88118","geonameId":4839750,"toponymName":"North Stonington","countryId":"6252001","fcl":"P","population":0,"countryCode":"US","name":"North Stonington","fclName":"city, village,...","countryName":"United States","fcodeName":"populated place","adminName1":"Connecticut","lat":"41.44093","fcode":"PPL"},{"adminCode1":"CT","lng":"-72.32897","geonameId":4839995,"toponymName":"Old Lyme","countryId":"6252001","fcl":"P","population":0,"countryCode":"US","name":"Old Lyme","fclName":"city, village,...","countryName":"United States","fcodeName":"populated place","adminName1":"Connecticut","lat":"41.31593","fcode":"PPL"},{"adminCode1":"CT","lng":"-72.13091","geonameId":4840312,"toponymName":"Palmertown","countryId":"6252001","fcl":"P","population":0,"countryCode":"US","name":"Palmertown","fclName":"city, village,...","countryName":"United States","fcodeName":"populated place","adminName1":"Connecticut","lat":"41.4476","fcode":"PPL"},{"adminCode1":"CT","lng":"-72.10591","geonameId":4841191,"toponymName":"Quaker Hill","countryId":"6252001","fcl":"P","population":0,"countryCode":"US","name":"Quaker Hill","fclName":"city, village,...","countryName":"United States","fcodeName":"populated place","adminName1":"Connecticut","lat":"41.40343","fcode":"PPL"},{"adminCode1":"CT","lng":"-71.97896","geonameId":4841291,"toponymName":"Ram Island","countryId":"6252001","fcl":"T","population":0,"countryCode":"US","name":"Ram Island","fclName":"mountain,hill,rock,... ","countryName":"United States","fcodeName":"island","adminName1":"Connecticut","lat":"41.31343","fcode":"ISL"},{"adminCode1":"CT","lng":"-72.27536","geonameId":4842488,"toponymName":"Salem","countryId":"6252001","fcl":"P","population":0,"countryCode":"US","name":"Salem","fclName":"city, village,...","countryName":"United States","fcodeName":"populated place","adminName1":"Connecticut","lat":"41.49038","fcode":"PPL"},{"adminCode1":"CT","lng":"-71.9059","geonameId":4843735,"toponymName":"Stonington","countryId":"6252001","fcl":"P","population":929,"countryCode":"US","name":"Stonington","fclName":"city, village,...","countryName":"United States","fcodeName":"populated place","adminName1":"Connecticut","lat":"41.33593","fcode":"PPL"},{"adminCode1":"CT","lng":"-72.0473","geonameId":4843971,"toponymName":"Taftville","countryId":"6252001","fcl":"P","population":0,"countryCode":"US","name":"Taftville","fclName":"city, village,...","countryName":"United States","fcodeName":"populated place","adminName1":"Connecticut","lat":"41.56982","fcode":"PPL"},{"adminCode1":"CT","lng":"-71.87035","geonameId":4844893,"toponymName":"Voluntown","countryId":"6252001","fcl":"P","population":0,"countryCode":"US","name":"Voluntown","fclName":"city, village,...","countryName":"United States","fcodeName":"populated place","adminName1":"Connecticut","lat":"41.57065","fcode":"PPL"},{"adminCode1":"CT","lng":"-72.17619","geonameId":4845230,"toponymName":"Waterford Speedbowl","countryId":"6252001","fcl":"L","population":0,"countryCode":"US","name":"Waterford Speedbowl","fclName":"parks,area, ...","countryName":"United States","fcodeName":"park","adminName1":"Connecticut","lat":"41.39676","fcode":"PRK"},{"adminCode1":"CT","lng":"-71.88729","geonameId":4833853,"toponymName":"Elihu Island","countryId":"6252001","fcl":"T","population":0,"countryCode":"US","name":"Elihu Island","fclName":"mountain,hill,rock,... ","countryName":"United States","fcodeName":"island","adminName1":"Connecticut","lat":"41.33677","fcode":"ISL"},{"adminCode1":"CT","lng":"-71.96285","geonameId":4834038,"toponymName":"Enders Island","countryId":"6252001","fcl":"T","population":0,"countryCode":"US","name":"Enders Island","fclName":"mountain,hill,rock,... ","countryName":"United States","fcodeName":"island","adminName1":"Connecticut","lat":"41.32232","fcode":"ISL"},{"adminCode1":"CT","lng":"-72.09595","geonameId":4834668,"toponymName":"Fort Trumbull","countryId":"6252001","fcl":"P","population":0,"countryCode":"US","name":"Fort Trumbull","fclName":"city, village,...","countryName":"United States","fcodeName":"populated place","adminName1":"Connecticut","lat":"41.34397","fcode":"PPL"},{"adminCode1":"CT","lng":"-72.14591","geonameId":4834753,"toponymName":"Franklin","countryId":"6252001","fcl":"P","population":0,"countryCode":"US","name":"Franklin","fclName":"city, village,...","countryName":"United States","fcodeName":"populated place","adminName1":"Connecticut","lat":"41.60899","fcode":"PPL"},{"adminCode1":"CT","lng":"-71.88537","geonameId":4835049,"toponymName":"Goat Island","countryId":"6252001","fcl":"T","population":0,"countryCode":"US","name":"Goat Island","fclName":"mountain,hill,rock,... ","countryName":"United States","fcodeName":"island","adminName1":"Connecticut","lat":"41.34113","fcode":"ISL"},{"adminCode1":"CT","lng":"-72.00785","geonameId":4835472,"toponymName":"Groton Long Point","countryId":"6252001","fcl":"P","population":518,"countryCode":"US","name":"Groton Long Point","fclName":"city, village,...","countryName":"United States","fcodeName":"populated place","adminName1":"Connecticut","lat":"41.31454","fcode":"PPL"},{"adminCode1":"CT","lng":"-72.07942","geonameId":4835476,"toponymName":"Groton Monument","countryId":"6252001","fcl":"L","population":0,"countryCode":"US","name":"Fort Griswold Monument","fclName":"parks,area, ...","countryName":"United States","fcodeName":"park","adminName1":"Connecticut","lat":"41.35495","fcode":"PRK"},{"adminCode1":"CT","lng":"-72.05424","geonameId":4835546,"toponymName":"Gungywamp Hill","countryId":"6252001","fcl":"T","population":0,"countryCode":"US","name":"Gungywamp Hill","fclName":"mountain,hill,rock,... ","countryName":"United States","fcodeName":"mountain","adminName1":"Connecticut","lat":"41.40149","fcode":"MT"},{"adminCode1":"CT","lng":"-72.09627","geonameId":7316471,"toponymName":"City of New London","countryId":"6252001","fcl":"A","population":27620,"countryCode":"US","name":"City of New London","fclName":"country, state, region,...","countryName":"United States","fcodeName":"administrative division","adminName1":"Connecticut","lat":"41.33286","fcode":"ADMD"},{"adminCode1":"ENG","lng":"-0.15547","geonameId":6690602,"toponymName":"Battersea","countryId":"2635167","fcl":"P","population":75651,"countryCode":"GB","name":"Battersea","fclName":"city, village,...","countryName":"United Kingdom","fcodeName":"section of populated place","adminName1":"England","lat":"51.47475","fcode":"PPLX"},{"adminCode1":"CT","lng":"-72.09627","geonameId":4839433,"toponymName":"Town of New London","countryId":"6252001","fcl":"A","population":0,"countryCode":"US","name":"Town of New London","fclName":"country, state, region,...","countryName":"United States","fcodeName":"administrative division","adminName1":"Connecticut","lat":"41.33286","fcode":"ADMD"},{"adminCode1":"ENG","lng":"-0.08763","geonameId":6619889,"toponymName":"London Bridge","countryId":"2635167","fcl":"S","population":0,"countryCode":"GB","name":"London Bridge","fclName":"spot, building, farm","countryName":"United Kingdom","fcodeName":"bridge","adminName1":"England","lat":"51.50821","fcode":"BDG"},{"adminCode1":"01","lng":"-10.78731","geonameId":2406961,"toponymName":"London","countryId":"2403846","fcl":"P","population":0,"countryCode":"SL","name":"London","fclName":"city, village,...","countryName":"Sierra Leone","fcodeName":"populated place","adminName1":"Eastern Province","lat":"8.31068","fcode":"PPL"},{"adminCode1":"WI","lng":"-88.73983","geonameId":5264455,"toponymName":"New London","countryId":"6252001","fcl":"P","population":7295,"countryCode":"US","name":"New London","fclName":"city, village,...","countryName":"United States","fcodeName":"populated place","adminName1":"Wisconsin","lat":"44.39276","fcode":"PPL"},{"adminCode1":"IA","lng":"-91.3996","geonameId":4868768,"toponymName":"New London","countryId":"6252001","fcl":"P","population":1897,"countryCode":"US","name":"New London","fclName":"city, village,...","countryName":"United States","fcodeName":"populated place","adminName1":"Iowa","lat":"40.92698","fcode":"PPL"},{"adminCode1":"TX","lng":"-94.94049","geonameId":4714475,"toponymName":"New London","countryId":"6252001","fcl":"P","population":998,"countryCode":"US","name":"New London","fclName":"city, village,...","countryName":"United States","fcodeName":"populated place","adminName1":"Texas","lat":"32.23877","fcode":"PPL"},{"adminCode1":"CT","lng":"-72.11452","geonameId":5280915,"toponymName":"Johnson Pond","countryId":"6252001","fcl":"H","population":0,"countryCode":"US","name":"Johnson Pond","fclName":"stream, lake, ...","countryName":"United States","fcodeName":"lake","adminName1":"Connecticut","lat":"41.4551","fcode":"LK"},{"adminCode1":"CT","lng":"-71.97575","geonameId":5281547,"toponymName":"Amos Lake","countryId":"6252001","fcl":"H","population":0,"countryCode":"US","name":"Amos Lake","fclName":"stream, lake, ...","countryName":"United States","fcodeName":"lake","adminName1":"Connecticut","lat":"41.51722","fcode":"LK"},{"adminCode1":"CT","lng":"-72.39704","geonameId":5281759,"toponymName":"Babcock Pond","countryId":"6252001","fcl":"H","population":0,"countryCode":"US","name":"Babcock Pond","fclName":"stream, lake, ...","countryName":"United States","fcodeName":"lake","adminName1":"Connecticut","lat":"41.54135","fcode":"LK"},{"adminCode1":"CT","lng":"-71.79068","geonameId":5281782,"toponymName":"Bailey Pond","countryId":"6252001","fcl":"H","population":0,"countryCode":"US","name":"Bailey Pond","fclName":"stream, lake, ...","countryName":"United States","fcodeName":"lake","adminName1":"Connecticut","lat":"41.6366","fcode":"LK"},{"adminCode1":"CT","lng":"-72.12077","geonameId":5281805,"toponymName":"Banks Pond","countryId":"6252001","fcl":"H","population":0,"countryCode":"US","name":"Banks Pond","fclName":"stream, lake, ...","countryName":"United States","fcodeName":"lake","adminName1":"Connecticut","lat":"41.3215","fcode":"LK"},{"adminCode1":"CT","lng":"-72.03292","geonameId":5281935,"toponymName":"Bates Pond","countryId":"6252001","fcl":"H","population":0,"countryCode":"US","name":"Bates Pond","fclName":"stream, lake, ...","countryName":"United States","fcodeName":"lake","adminName1":"Connecticut","lat":"41.53475","fcode":"LK"},{"adminCode1":"CT","lng":"-72.22216","geonameId":5282141,"toponymName":"Beckwith Pond","countryId":"6252001","fcl":"H","population":0,"countryCode":"US","name":"Beckwith Pond","fclName":"stream, lake, ...","countryName":"United States","fcodeName":"lake","adminName1":"Connecticut","lat":"41.44053","fcode":"LK"},{"adminCode1":"CT","lng":"-71.99187","geonameId":5282153,"toponymName":"Beebe Pond","countryId":"6252001","fcl":"H","population":0,"countryCode":"US","name":"Beebe Pond","fclName":"stream, lake, ...","countryName":"United States","fcodeName":"lake","adminName1":"Connecticut","lat":"41.34161","fcode":"LK"}]}